{
  "type": "FeatureCollection",
  "features": [
    {
      "type": "Feature",
      "geometry": {
        "type": "Point",
        "coordinates": [
          10.7865461,
          52.4226503
        ]
      },
      "properties": {
        "name": "Wolfsburg",
        "rating": 0,
        "reviewCount": 0,
        "weight": 0,
        "types": "locality, political"
      }
    },
    {
      "type": "Feature",
      "geometry": {
        "type": "Point",
        "coordinates": [
          10.7898268,
          52.4332339
        ]
      },
      "properties": {
        "name": "The Ritz-Carlton, Wolfsburg",
        "rating": 4.7,
        "reviewCount": 1565,
        "weight": 7.356279876550748,
        "types": "lodging, point_of_interest, establishment"
      }
    },
    {
      "type": "Feature",
      "geometry": {
        "type": "Point",
        "coordinates": [
          10.787134,
          52.42344199999999
        ]
      },
      "properties": {
        "name": "City Hotel Journal",
        "rating": 4.1,
        "reviewCount": 411,
        "weight": 6.021023349349527,
        "types": "bar, lodging, restaurant, food, point_of_interest, establishment"
      }
    },
    {
      "type": "Feature",
      "geometry": {
        "type": "Point",
        "coordinates": [
          10.777583,
          52.425356
        ]
      },
      "properties": {
        "name": "Hotel Global Inn",
        "rating": 4.4,
        "reviewCount": 937,
        "weight": 6.843749949006225,
        "types": "lodging, point_of_interest, establishment"
      }
    },
    {
      "type": "Feature",
      "geometry": {
        "type": "Point",
        "coordinates": [
          10.78876,
          52.42854999999999
        ]
      },
      "properties": {
        "name": "Hotel Wolfsburg Centrum affiliated by Meliá",
        "rating": 4,
        "reviewCount": 491,
        "weight": 6.198478716492308,
        "types": "lodging, point_of_interest, establishment"
      }
    },
    {
      "type": "Feature",
      "geometry": {
        "type": "Point",
        "coordinates": [
          10.8055414,
          52.4145659
        ]
      },
      "properties": {
        "name": "City Partner Parkhotel Wolfsburg",
        "rating": 4.5,
        "reviewCount": 804,
        "weight": 6.690842277418564,
        "types": "lodging, restaurant, food, point_of_interest, establishment"
      }
    },
    {
      "type": "Feature",
      "geometry": {
        "type": "Point",
        "coordinates": [
          10.7848083,
          52.4178502
        ]
      },
      "properties": {
        "name": "Leonardo Hotel Wolfsburg City Center",
        "rating": 4.3,
        "reviewCount": 3694,
        "weight": 8.214735833382303,
        "types": "lodging, point_of_interest, establishment"
      }
    },
    {
      "type": "Feature",
      "geometry": {
        "type": "Point",
        "coordinates": [
          10.788237,
          52.428364
        ]
      },
      "properties": {
        "name": "INNSiDE by Meliá Wolfsburg",
        "rating": 4.3,
        "reviewCount": 1485,
        "weight": 7.303843225277705,
        "types": "lodging, point_of_interest, establishment"
      }
    },
    {
      "type": "Feature",
      "geometry": {
        "type": "Point",
        "coordinates": [
          10.7942053,
          52.4326674
        ]
      },
      "properties": {
        "name": "Autostadt",
        "rating": 4.5,
        "reviewCount": 29750,
        "weight": 10.300618023854234,
        "types": "museum, tourist_attraction, point_of_interest, establishment"
      }
    },
    {
      "type": "Feature",
      "geometry": {
        "type": "Point",
        "coordinates": [
          10.8038854,
          52.4326693
        ]
      },
      "properties": {
        "name": "Volkswagen Arena",
        "rating": 4.2,
        "reviewCount": 7210,
        "weight": 8.88336291691676,
        "types": "stadium, point_of_interest, establishment"
      }
    },
    {
      "type": "Feature",
      "geometry": {
        "type": "Point",
        "coordinates": [
          10.7930383,
          52.4285943
        ]
      },
      "properties": {
        "name": "Designer Outlets Wolfsburg",
        "rating": 4.2,
        "reviewCount": 13832,
        "weight": 9.534812320874815,
        "types": "shopping_mall, clothing_store, point_of_interest, store, establishment"
      }
    },
    {
      "type": "Feature",
      "geometry": {
        "type": "Point",
        "coordinates": [
          10.7960142,
          52.4265607
        ]
      },
      "properties": {
        "name": "einschlaf",
        "rating": 4.8,
        "reviewCount": 33,
        "weight": 3.5263605246161616,
        "types": "lodging, point_of_interest, establishment"
      }
    },
    {
      "type": "Feature",
      "geometry": {
        "type": "Point",
        "coordinates": [
          10.7883847,
          52.4245233
        ]
      },
      "properties": {
        "name": "Deutsche Bank Filiale",
        "rating": 4.4,
        "reviewCount": 125,
        "weight": 4.836281906951478,
        "types": "bank, atm, finance, point_of_interest, establishment"
      }
    },
    {
      "type": "Feature",
      "geometry": {
        "type": "Point",
        "coordinates": [
          10.8018099,
          52.4410274
        ]
      },
      "properties": {
        "name": "Hotel Alter Wolf",
        "rating": 3.5,
        "reviewCount": 399,
        "weight": 5.991464547107982,
        "types": "lodging, point_of_interest, establishment"
      }
    },
    {
      "type": "Feature",
      "geometry": {
        "type": "Point",
        "coordinates": [
          10.7873327,
          52.4286018
        ]
      },
      "properties": {
        "name": "CinemaxX Wolfsburg",
        "rating": 4,
        "reviewCount": 2862,
        "weight": 7.959625305098115,
        "types": "movie_theater, point_of_interest, establishment"
      }
    },
    {
      "type": "Feature",
      "geometry": {
        "type": "Point",
        "coordinates": [
          10.7838709,
          52.42633099999999
        ]
      },
      "properties": {
        "name": "CL Appartments Wolfsburg",
        "rating": 4.3,
        "reviewCount": 3,
        "weight": 1.3862943611198906,
        "types": "lodging, point_of_interest, establishment"
      }
    },
    {
      "type": "Feature",
      "geometry": {
        "type": "Point",
        "coordinates": [
          10.7904745,
          52.4288531
        ]
      },
      "properties": {
        "name": "Phaeno Science Center",
        "rating": 4.7,
        "reviewCount": 7044,
        "weight": 8.86007342433278,
        "types": "tourist_attraction, museum, point_of_interest, establishment"
      }
    },
    {
      "type": "Feature",
      "geometry": {
        "type": "Point",
        "coordinates": [
          10.7847945,
          52.42112979999999
        ]
      },
      "properties": {
        "name": "Hautarztpraxis, Keshavarz, Mehran",
        "rating": 3,
        "reviewCount": 528,
        "weight": 6.270988431858299,
        "types": "doctor, point_of_interest, health, establishment"
      }
    },
    {
      "type": "Feature",
      "geometry": {
        "type": "Point",
        "coordinates": [
          10.8139125,
          52.4361421
        ]
      },
      "properties": {
        "name": "BadeLand Wolfsburg",
        "rating": 4.2,
        "reviewCount": 7139,
        "weight": 8.87346805533363,
        "types": "amusement_park, tourist_attraction, spa, point_of_interest, health, establishment"
      }
    },
    {
      "type": "Feature",
      "geometry": {
        "type": "Point",
        "coordinates": [
          10.7865786,
          52.4233238
        ]
      },
      "properties": {
        "name": "Dr. med. Oliver Tomsing / Dr. med. Elisabeth Schepers",
        "rating": 3.1,
        "reviewCount": 108,
        "weight": 4.6913478822291435,
        "types": "doctor, point_of_interest, health, establishment"
      }
    },
    {
      "type": "Feature",
      "geometry": {
        "type": "Point",
        "coordinates": [
          10.7608218,
          52.42006620000001
        ]
      },
      "properties": {
        "name": "Wolf-Apotheke",
        "rating": 4.4,
        "reviewCount": 27,
        "weight": 3.332204510175204,
        "types": "pharmacy, point_of_interest, health, store, establishment"
      }
    },
    {
      "type": "Feature",
      "geometry": {
        "type": "Point",
        "coordinates": [
          10.755,
          52.42749999999999
        ]
      },
      "properties": {
        "name": "Alter Dorfkrug am Kanal",
        "rating": 4.4,
        "reviewCount": 631,
        "weight": 6.448889394146858,
        "types": "lodging, point_of_interest, establishment"
      }
    },
    {
      "type": "Feature",
      "geometry": {
        "type": "Point",
        "coordinates": [
          10.7893769,
          52.4257759
        ]
      },
      "properties": {
        "name": "TEDi GmbH & Co. KG",
        "rating": 4,
        "reviewCount": 338,
        "weight": 5.82600010738045,
        "types": "home_goods_store, point_of_interest, store, establishment"
      }
    },
    {
      "type": "Feature",
      "geometry": {
        "type": "Point",
        "coordinates": [
          10.8015179,
          52.4293506
        ]
      },
      "properties": {
        "name": "AUTOPLUS AG Werkstatt & Gebrauchtwagen + E-Bikes",
        "rating": 4.4,
        "reviewCount": 680,
        "weight": 6.523562306149512,
        "types": "car_repair, car_dealer, point_of_interest, store, establishment"
      }
    },
    {
      "type": "Feature",
      "geometry": {
        "type": "Point",
        "coordinates": [
          10.788553,
          52.42526300000001
        ]
      },
      "properties": {
        "name": "Cafe & Bar Celona Wolfsburg",
        "rating": 4,
        "reviewCount": 2647,
        "weight": 7.881559917056899,
        "types": "cafe, bar, restaurant, point_of_interest, store, food, establishment"
      }
    },
    {
      "type": "Feature",
      "geometry": {
        "type": "Point",
        "coordinates": [
          10.7879879,
          52.4241675
        ]
      },
      "properties": {
        "name": "Bode Eyes",
        "rating": 5,
        "reviewCount": 176,
        "weight": 5.176149732573829,
        "types": "point_of_interest, health, store, establishment"
      }
    },
    {
      "type": "Feature",
      "geometry": {
        "type": "Point",
        "coordinates": [
          10.7817349,
          52.4262925
        ]
      },
      "properties": {
        "name": "Restaurant Thission - Wolfsburg",
        "rating": 4.5,
        "reviewCount": 968,
        "weight": 6.876264611890766,
        "types": "restaurant, point_of_interest, food, establishment"
      }
    },
    {
      "type": "Feature",
      "geometry": {
        "type": "Point",
        "coordinates": [
          10.7710501,
          52.41397670000001
        ]
      },
      "properties": {
        "name": "Dr. med. Jens Behrendt",
        "rating": 3.4,
        "reviewCount": 182,
        "weight": 5.209486152841421,
        "types": "doctor, point_of_interest, health, establishment"
      }
    },
    {
      "type": "Feature",
      "geometry": {
        "type": "Point",
        "coordinates": [
          10.7625149,
          52.4253265
        ]
      },
      "properties": {
        "name": "Audi Zentrum Wolfsburg",
        "rating": 4.4,
        "reviewCount": 496,
        "weight": 6.208590026096629,
        "types": "car_dealer, car_repair, point_of_interest, store, establishment"
      }
    },
    {
      "type": "Feature",
      "geometry": {
        "type": "Point",
        "coordinates": [
          10.7888258,
          52.42214849999999
        ]
      },
      "properties": {
        "name": "MediaMarkt Wolfsburg-City",
        "rating": 4,
        "reviewCount": 2434,
        "weight": 7.79770203551669,
        "types": "electronics_store, home_goods_store, point_of_interest, store, establishment"
      }
    },
    {
      "type": "Feature",
      "geometry": {
        "type": "Point",
        "coordinates": [
          10.8053669,
          52.4337054
        ]
      },
      "properties": {
        "name": "VfL Fanshop",
        "rating": 4.5,
        "reviewCount": 157,
        "weight": 5.062595033026967,
        "types": "point_of_interest, store, establishment"
      }
    },
    {
      "type": "Feature",
      "geometry": {
        "type": "Point",
        "coordinates": [
          10.7888268,
          52.4247628
        ]
      },
      "properties": {
        "name": "ltur Reisebüro Wolfsburg",
        "rating": 4.3,
        "reviewCount": 50,
        "weight": 3.9318256327243257,
        "types": "travel_agency, point_of_interest, establishment"
      }
    },
    {
      "type": "Feature",
      "geometry": {
        "type": "Point",
        "coordinates": [
          10.787157,
          52.4218629
        ]
      },
      "properties": {
        "name": "Urologische Praxisgemeinschaft Wolfsburg",
        "rating": 3.7,
        "reviewCount": 71,
        "weight": 4.276666119016055,
        "types": "doctor, point_of_interest, health, establishment"
      }
    },
    {
      "type": "Feature",
      "geometry": {
        "type": "Point",
        "coordinates": [
          10.78534,
          52.42287879999999
        ]
      },
      "properties": {
        "name": "Sushi Berlin | Wolfsburg",
        "rating": 4.2,
        "reviewCount": 956,
        "weight": 6.863803391452954,
        "types": "restaurant, point_of_interest, food, establishment"
      }
    },
    {
      "type": "Feature",
      "geometry": {
        "type": "Point",
        "coordinates": [
          10.7885304,
          52.4236648
        ]
      },
      "properties": {
        "name": "Telekom Shop",
        "rating": 4.2,
        "reviewCount": 402,
        "weight": 5.998936561946683,
        "types": "point_of_interest, store, establishment"
      }
    },
    {
      "type": "Feature",
      "geometry": {
        "type": "Point",
        "coordinates": [
          10.7798946,
          52.41850780000001
        ]
      },
      "properties": {
        "name": "INJOY Wolfsburg",
        "rating": 4.7,
        "reviewCount": 462,
        "weight": 6.137727054086234,
        "types": "gym, point_of_interest, health, establishment"
      }
    },
    {
      "type": "Feature",
      "geometry": {
        "type": "Point",
        "coordinates": [
          10.7686016,
          52.4206728
        ]
      },
      "properties": {
        "name": "Pension Schindler",
        "rating": 2.6,
        "reviewCount": 5,
        "weight": 1.791759469228055,
        "types": "lodging, point_of_interest, establishment"
      }
    },
    {
      "type": "Feature",
      "geometry": {
        "type": "Point",
        "coordinates": [
          10.7945683,
          52.4280102
        ]
      },
      "properties": {
        "name": "𝗗𝗶𝗮𝗴𝗻𝗼𝘀𝘁𝗶𝗸𝘇𝗲𝗻𝘁𝗿𝘂𝗺 𝗥𝗮𝗱𝗶𝗼𝗹𝗼𝗴𝗶𝗲 𝗪𝗼𝗹𝗳𝘀𝗯𝘂𝗿𝗴 - 𝗗𝗿. 𝗺𝗲𝗱. 𝗠𝗶𝗰𝗵𝗮𝗲𝗹 𝗔𝘂",
        "rating": 4.8,
        "reviewCount": 340,
        "weight": 5.831882477283517,
        "types": "doctor, health, point_of_interest, establishment"
      }
    },
    {
      "type": "Feature",
      "geometry": {
        "type": "Point",
        "coordinates": [
          10.7530621,
          52.401121
        ]
      },
      "properties": {
        "name": "Simonshof",
        "rating": 3.9,
        "reviewCount": 207,
        "weight": 5.337538079701318,
        "types": "lodging, restaurant, food, point_of_interest, establishment"
      }
    },
    {
      "type": "Feature",
      "geometry": {
        "type": "Point",
        "coordinates": [
          10.7840147,
          52.4223823
        ]
      },
      "properties": {
        "name": "Trattoria Incontri - Wolfsburg",
        "rating": 4.5,
        "reviewCount": 1075,
        "weight": 6.98100574072173,
        "types": "restaurant, food, point_of_interest, establishment"
      }
    },
    {
      "type": "Feature",
      "geometry": {
        "type": "Point",
        "coordinates": [
          10.8144559,
          52.42803729999999
        ]
      },
      "properties": {
        "name": "KFZ Werkstatt & Autoverwertung Grützmacher",
        "rating": 4.5,
        "reviewCount": 143,
        "weight": 4.969813299576001,
        "types": "car_repair, point_of_interest, store, establishment"
      }
    },
    {
      "type": "Feature",
      "geometry": {
        "type": "Point",
        "coordinates": [
          10.7836925,
          52.4250147
        ]
      },
      "properties": {
        "name": "Boutique Hotel Goldene Henne",
        "rating": 4.5,
        "reviewCount": 519,
        "weight": 6.253828811575473,
        "types": "bar, meal_takeaway, lodging, restaurant, food, point_of_interest, establishment"
      }
    },
    {
      "type": "Feature",
      "geometry": {
        "type": "Point",
        "coordinates": [
          10.7968885,
          52.42387869999999
        ]
      },
      "properties": {
        "name": "Volksbank BRAWO, Hauptstelle Am Mühlengraben",
        "rating": 3.7,
        "reviewCount": 30,
        "weight": 3.4339872044851463,
        "types": "bank, atm, real_estate_agency, finance, point_of_interest, establishment"
      }
    },
    {
      "type": "Feature",
      "geometry": {
        "type": "Point",
        "coordinates": [
          10.78441,
          52.41929
        ]
      },
      "properties": {
        "name": "Dr. med. Jürgen Flimm / Dr. Alexander Szymkowiak",
        "rating": 3.5,
        "reviewCount": 99,
        "weight": 4.605170185988092,
        "types": "doctor, health, point_of_interest, establishment"
      }
    },
    {
      "type": "Feature",
      "geometry": {
        "type": "Point",
        "coordinates": [
          10.7923404,
          52.4244419
        ]
      },
      "properties": {
        "name": "Mr. Lee",
        "rating": 3.7,
        "reviewCount": 528,
        "weight": 6.270988431858299,
        "types": "restaurant, food, point_of_interest, establishment"
      }
    },
    {
      "type": "Feature",
      "geometry": {
        "type": "Point",
        "coordinates": [
          10.7859401,
          52.4214744
        ]
      },
      "properties": {
        "name": "Sparkasse Gifhorn-Wolfsburg - Real Estate Center",
        "rating": 4,
        "reviewCount": 39,
        "weight": 3.6888794541139363,
        "types": "real_estate_agency, finance, point_of_interest, establishment"
      }
    },
    {
      "type": "Feature",
      "geometry": {
        "type": "Point",
        "coordinates": [
          10.7815218,
          52.42504530000001
        ]
      },
      "properties": {
        "name": "Friseur Haarmanufaktur Wolfsburg",
        "rating": 4.4,
        "reviewCount": 445,
        "weight": 6.100318952020064,
        "types": "hair_care, point_of_interest, establishment"
      }
    },
    {
      "type": "Feature",
      "geometry": {
        "type": "Point",
        "coordinates": [
          10.7854122,
          52.4262824
        ]
      },
      "properties": {
        "name": "Budgethotel Stadtbett GmbH & Co KG",
        "rating": 4.2,
        "reviewCount": 54,
        "weight": 4.007333185232471,
        "types": "lodging, restaurant, food, point_of_interest, establishment"
      }
    },
    {
      "type": "Feature",
      "geometry": {
        "type": "Point",
        "coordinates": [
          10.7878335,
          52.4238986
        ]
      },
      "properties": {
        "name": "Internist Dr. med. Rolf Fritz Otto",
        "rating": 4.5,
        "reviewCount": 35,
        "weight": 3.58351893845611,
        "types": "doctor, health, point_of_interest, establishment"
      }
    },
    {
      "type": "Feature",
      "geometry": {
        "type": "Point",
        "coordinates": [
          10.8143437,
          52.4287675
        ]
      },
      "properties": {
        "name": "IDENTICA Hamann OHG",
        "rating": 4.6,
        "reviewCount": 77,
        "weight": 4.356708826689592,
        "types": "lawyer, car_repair, point_of_interest, establishment"
      }
    },
    {
      "type": "Feature",
      "geometry": {
        "type": "Point",
        "coordinates": [
          10.8387034,
          52.43912049999999
        ]
      },
      "properties": {
        "name": "GGAppartements",
        "rating": 0,
        "reviewCount": 0,
        "weight": 0,
        "types": "lodging, point_of_interest, establishment"
      }
    },
    {
      "type": "Feature",
      "geometry": {
        "type": "Point",
        "coordinates": [
          10.802801,
          52.4327071
        ]
      },
      "properties": {
        "name": "VfL Wolfsburg",
        "rating": 4.3,
        "reviewCount": 186,
        "weight": 5.231108616854587,
        "types": "point_of_interest, establishment"
      }
    },
    {
      "type": "Feature",
      "geometry": {
        "type": "Point",
        "coordinates": [
          10.7874019,
          52.4234375
        ]
      },
      "properties": {
        "name": "Buck Reinhard",
        "rating": 3.7,
        "reviewCount": 6,
        "weight": 1.9459101490553132,
        "types": "doctor, health, point_of_interest, establishment"
      }
    },
    {
      "type": "Feature",
      "geometry": {
        "type": "Point",
        "coordinates": [
          10.7634537,
          52.42580160000001
        ]
      },
      "properties": {
        "name": "SEAT Hotz and Heitmann Wolfsburg",
        "rating": 4,
        "reviewCount": 114,
        "weight": 4.74493212836325,
        "types": "car_dealer, car_repair, point_of_interest, store, establishment"
      }
    },
    {
      "type": "Feature",
      "geometry": {
        "type": "Point",
        "coordinates": [
          10.784738,
          52.4237707
        ]
      },
      "properties": {
        "name": "China Service Snacks & Drinks",
        "rating": 3.7,
        "reviewCount": 107,
        "weight": 4.68213122712422,
        "types": "meal_takeaway, restaurant, food, point_of_interest, establishment"
      }
    },
    {
      "type": "Feature",
      "geometry": {
        "type": "Point",
        "coordinates": [
          10.7878133,
          52.4226031
        ]
      },
      "properties": {
        "name": "City-Galerie Wolfsburg",
        "rating": 4.2,
        "reviewCount": 8147,
        "weight": 9.005527777346696,
        "types": "shopping_mall, point_of_interest, establishment"
      }
    },
    {
      "type": "Feature",
      "geometry": {
        "type": "Point",
        "coordinates": [
          10.7816907,
          52.4264841
        ]
      },
      "properties": {
        "name": "Sparkasse Gifhorn-Wolfsburg - Branch",
        "rating": 2.4,
        "reviewCount": 10,
        "weight": 2.3978952727983707,
        "types": "atm, bank, finance, point_of_interest, establishment"
      }
    },
    {
      "type": "Feature",
      "geometry": {
        "type": "Point",
        "coordinates": [
          10.8575023,
          52.4150901
        ]
      },
      "properties": {
        "name": "Hotel An der Wasserburg",
        "rating": 4.5,
        "reviewCount": 825,
        "weight": 6.716594773520978,
        "types": "lodging, point_of_interest, establishment"
      }
    },
    {
      "type": "Feature",
      "geometry": {
        "type": "Point",
        "coordinates": [
          10.8565272,
          52.4147731
        ]
      },
      "properties": {
        "name": "Engels Hof",
        "rating": 4.8,
        "reviewCount": 22,
        "weight": 3.1354942159291497,
        "types": "lodging, point_of_interest, establishment"
      }
    },
    {
      "type": "Feature",
      "geometry": {
        "type": "Point",
        "coordinates": [
          10.830787,
          52.40163
        ]
      },
      "properties": {
        "name": "Lindenhof Nordsteimke GmbH",
        "rating": 4.5,
        "reviewCount": 383,
        "weight": 5.950642552587727,
        "types": "lodging, point_of_interest, establishment"
      }
    },
    {
      "type": "Feature",
      "geometry": {
        "type": "Point",
        "coordinates": [
          10.8026516,
          52.4220322
        ]
      },
      "properties": {
        "name": "Sparkasse Gifhorn-Wolfsburg - Branch",
        "rating": 2.7,
        "reviewCount": 9,
        "weight": 2.302585092994046,
        "types": "atm, bank, finance, point_of_interest, establishment"
      }
    },
    {
      "type": "Feature",
      "geometry": {
        "type": "Point",
        "coordinates": [
          10.7890156,
          52.41567120000001
        ]
      },
      "properties": {
        "name": "Eichendorffschule Wolfsburg",
        "rating": 0,
        "reviewCount": 0,
        "weight": 0,
        "types": "secondary_school, school, point_of_interest, establishment"
      }
    },
    {
      "type": "Feature",
      "geometry": {
        "type": "Point",
        "coordinates": [
          10.7886137,
          52.42230879999999
        ]
      },
      "properties": {
        "name": "mods hair Paris",
        "rating": 0,
        "reviewCount": 0,
        "weight": 0,
        "types": "hair_care, point_of_interest, establishment"
      }
    },
    {
      "type": "Feature",
      "geometry": {
        "type": "Point",
        "coordinates": [
          10.7889711,
          52.4224677
        ]
      },
      "properties": {
        "name": "Wurst-Basar",
        "rating": 3.2,
        "reviewCount": 54,
        "weight": 4.007333185232471,
        "types": "food, store, point_of_interest, establishment"
      }
    },
    {
      "type": "Feature",
      "geometry": {
        "type": "Point",
        "coordinates": [
          10.7891743,
          52.42561010000001
        ]
      },
      "properties": {
        "name": "WMG Wolfsburg Wirtschaft und Marketing GmbH",
        "rating": 4,
        "reviewCount": 25,
        "weight": 3.258096538021482,
        "types": "travel_agency, point_of_interest, establishment"
      }
    },
    {
      "type": "Feature",
      "geometry": {
        "type": "Point",
        "coordinates": [
          10.7893221,
          52.4257867
        ]
      },
      "properties": {
        "name": "Postbank Filiale",
        "rating": 3.7,
        "reviewCount": 499,
        "weight": 6.214608098422191,
        "types": "bank, atm, finance, point_of_interest, establishment"
      }
    },
    {
      "type": "Feature",
      "geometry": {
        "type": "Point",
        "coordinates": [
          10.7883747,
          52.4228355
        ]
      },
      "properties": {
        "name": "engbers / emilio adani",
        "rating": 4.6,
        "reviewCount": 54,
        "weight": 4.007333185232471,
        "types": "clothing_store, store, point_of_interest, establishment"
      }
    },
    {
      "type": "Feature",
      "geometry": {
        "type": "Point",
        "coordinates": [
          10.8100019,
          52.42927590000001
        ]
      },
      "properties": {
        "name": "Volke Kommunikations-Design GmbH",
        "rating": 4.6,
        "reviewCount": 25,
        "weight": 3.258096538021482,
        "types": "car_repair, point_of_interest, establishment"
      }
    },
    {
      "type": "Feature",
      "geometry": {
        "type": "Point",
        "coordinates": [
          10.788628,
          52.424176
        ]
      },
      "properties": {
        "name": "dm-drogerie markt",
        "rating": 4.2,
        "reviewCount": 152,
        "weight": 5.030437921392435,
        "types": "drugstore, clothing_store, grocery_or_supermarket, health, food, store, point_of_interest, establishment"
      }
    },
    {
      "type": "Feature",
      "geometry": {
        "type": "Point",
        "coordinates": [
          10.785039,
          52.4200762
        ]
      },
      "properties": {
        "name": "Anwaltskanzlei Waschke Kuba Zimmermann Rechtsanwaltsges. mbH",
        "rating": 4.8,
        "reviewCount": 63,
        "weight": 4.1588830833596715,
        "types": "point_of_interest, establishment"
      }
    },
    {
      "type": "Feature",
      "geometry": {
        "type": "Point",
        "coordinates": [
          10.7888258,
          52.42214849999999
        ]
      },
      "properties": {
        "name": "JACK & JONES",
        "rating": 4.5,
        "reviewCount": 40,
        "weight": 3.713572066704308,
        "types": "clothing_store, store, point_of_interest, establishment"
      }
    },
    {
      "type": "Feature",
      "geometry": {
        "type": "Point",
        "coordinates": [
          10.7821742,
          52.4120113
        ]
      },
      "properties": {
        "name": "Shell",
        "rating": 3.5,
        "reviewCount": 51,
        "weight": 3.9512437185814275,
        "types": "gas_station, point_of_interest, establishment"
      }
    },
    {
      "type": "Feature",
      "geometry": {
        "type": "Point",
        "coordinates": [
          10.7877451,
          52.41785749999999
        ]
      },
      "properties": {
        "name": "Documaxx - Wolfsburg",
        "rating": 4.4,
        "reviewCount": 65,
        "weight": 4.189654742026425,
        "types": "store, point_of_interest, establishment"
      }
    },
    {
      "type": "Feature",
      "geometry": {
        "type": "Point",
        "coordinates": [
          10.84663,
          52.39097
        ]
      },
      "properties": {
        "name": "Gardening Schliebener GbR",
        "rating": 4.7,
        "reviewCount": 703,
        "weight": 6.556778356158042,
        "types": "general_contractor, point_of_interest, establishment"
      }
    },
    {
      "type": "Feature",
      "geometry": {
        "type": "Point",
        "coordinates": [
          10.8067181,
          52.423469
        ]
      },
      "properties": {
        "name": "Versicherungsmakler",
        "rating": 0,
        "reviewCount": 0,
        "weight": 0,
        "types": "insurance_agency, hospital, health, point_of_interest, establishment"
      }
    },
    {
      "type": "Feature",
      "geometry": {
        "type": "Point",
        "coordinates": [
          10.836005,
          52.4407959
        ]
      },
      "properties": {
        "name": "ipartment Wolfsburg",
        "rating": 4.3,
        "reviewCount": 70,
        "weight": 4.2626798770413155,
        "types": "lodging, point_of_interest, establishment"
      }
    },
    {
      "type": "Feature",
      "geometry": {
        "type": "Point",
        "coordinates": [
          10.8320086,
          52.43845899999999
        ]
      },
      "properties": {
        "name": "Autohaus Koller",
        "rating": 4.3,
        "reviewCount": 418,
        "weight": 6.037870919922137,
        "types": "car_rental, car_dealer, car_repair, store, point_of_interest, establishment"
      }
    },
    {
      "type": "Feature",
      "geometry": {
        "type": "Point",
        "coordinates": [
          10.8395253,
          52.4373215
        ]
      },
      "properties": {
        "name": "Vorsfelder Hof",
        "rating": 4.5,
        "reviewCount": 810,
        "weight": 6.698268054115413,
        "types": "lodging, point_of_interest, establishment"
      }
    },
    {
      "type": "Feature",
      "geometry": {
        "type": "Point",
        "coordinates": [
          10.761719,
          52.42037209999999
        ]
      },
      "properties": {
        "name": "Mitte-West",
        "rating": 0,
        "reviewCount": 0,
        "weight": 0,
        "types": "sublocality_level_1, sublocality, political"
      }
    },
    {
      "type": "Feature",
      "geometry": {
        "type": "Point",
        "coordinates": [
          10.8388801,
          52.438007
        ]
      },
      "properties": {
        "name": "Bike & Niess",
        "rating": 4,
        "reviewCount": 98,
        "weight": 4.59511985013459,
        "types": "bicycle_store, point_of_interest, store, establishment"
      }
    },
    {
      "type": "Feature",
      "geometry": {
        "type": "Point",
        "coordinates": [
          10.83698,
          52.43991
        ]
      },
      "properties": {
        "name": "Hotel-Galeria",
        "rating": 4.6,
        "reviewCount": 42,
        "weight": 3.7612001156935624,
        "types": "lodging, point_of_interest, establishment"
      }
    },
    {
      "type": "Feature",
      "geometry": {
        "type": "Point",
        "coordinates": [
          10.7985909,
          52.43957400000001
        ]
      },
      "properties": {
        "name": "Restaurant Schlossremise",
        "rating": 4.7,
        "reviewCount": 856,
        "weight": 6.75343791859778,
        "types": "restaurant, food, point_of_interest, establishment"
      }
    },
    {
      "type": "Feature",
      "geometry": {
        "type": "Point",
        "coordinates": [
          10.8398735,
          52.4379229
        ]
      },
      "properties": {
        "name": "Helios MVZ Helmstedt Gynäkologie Nelli Müller",
        "rating": 4,
        "reviewCount": 34,
        "weight": 3.5553480614894135,
        "types": "doctor, point_of_interest, health, establishment"
      }
    },
    {
      "type": "Feature",
      "geometry": {
        "type": "Point",
        "coordinates": [
          10.8379327,
          52.4406878
        ]
      },
      "properties": {
        "name": "Volksbank BRAWO, Geschäftsstelle Lange Straße",
        "rating": 2.6,
        "reviewCount": 22,
        "weight": 3.1354942159291497,
        "types": "bank, atm, real_estate_agency, finance, point_of_interest, establishment"
      }
    },
    {
      "type": "Feature",
      "geometry": {
        "type": "Point",
        "coordinates": [
          10.8390554,
          52.438629
        ]
      },
      "properties": {
        "name": "Wurst-Basar Konrad Hinsemann GmbH",
        "rating": 4.5,
        "reviewCount": 12,
        "weight": 2.5649493574615367,
        "types": "food, point_of_interest, store, establishment"
      }
    },
    {
      "type": "Feature",
      "geometry": {
        "type": "Point",
        "coordinates": [
          10.7927159,
          52.42806390000001
        ]
      },
      "properties": {
        "name": "Augenklinik Dr. Hoffmann Augenzentrum Wolfsburg",
        "rating": 4.8,
        "reviewCount": 67,
        "weight": 4.219507705176107,
        "types": "doctor, point_of_interest, health, establishment"
      }
    },
    {
      "type": "Feature",
      "geometry": {
        "type": "Point",
        "coordinates": [
          10.8390919,
          52.43906390000001
        ]
      },
      "properties": {
        "name": "Karl Hohls KG",
        "rating": 4.5,
        "reviewCount": 241,
        "weight": 5.488937726156687,
        "types": "department_store, furniture_store, home_goods_store, point_of_interest, store, establishment"
      }
    },
    {
      "type": "Feature",
      "geometry": {
        "type": "Point",
        "coordinates": [
          10.7975763,
          52.4281972
        ]
      },
      "properties": {
        "name": "Polizeiinspektion Wolfsburg/Helmstedt",
        "rating": 0,
        "reviewCount": 0,
        "weight": 0,
        "types": "police, point_of_interest, establishment"
      }
    },
    {
      "type": "Feature",
      "geometry": {
        "type": "Point",
        "coordinates": [
          10.8138348,
          52.4431769
        ]
      },
      "properties": {
        "name": "Bäckerei Leifert GmbH",
        "rating": 3.9,
        "reviewCount": 97,
        "weight": 4.584967478670572,
        "types": "bakery, food, point_of_interest, store, establishment"
      }
    },
    {
      "type": "Feature",
      "geometry": {
        "type": "Point",
        "coordinates": [
          10.80621,
          52.45262
        ]
      },
      "properties": {
        "name": "Kiosk Schulenburgallee",
        "rating": 4.4,
        "reviewCount": 47,
        "weight": 3.8712010109078907,
        "types": "point_of_interest, store, establishment"
      }
    },
    {
      "type": "Feature",
      "geometry": {
        "type": "Point",
        "coordinates": [
          10.8019145,
          52.44863119999999
        ]
      },
      "properties": {
        "name": "Sparkasse Gifhorn-Wolfsburg - Branch",
        "rating": 3.7,
        "reviewCount": 14,
        "weight": 2.70805020110221,
        "types": "bank, finance, point_of_interest, establishment"
      }
    },
    {
      "type": "Feature",
      "geometry": {
        "type": "Point",
        "coordinates": [
          10.8020181,
          52.4481827
        ]
      },
      "properties": {
        "name": "Herr Dr. Djamal Taassob",
        "rating": 4.6,
        "reviewCount": 11,
        "weight": 2.4849066497880004,
        "types": "doctor, health, point_of_interest, establishment"
      }
    },
    {
      "type": "Feature",
      "geometry": {
        "type": "Point",
        "coordinates": [
          10.7861504,
          52.45247089999999
        ]
      },
      "properties": {
        "name": "Dipl-Päd. Jutta Hoyer",
        "rating": 0,
        "reviewCount": 0,
        "weight": 0,
        "types": "health, point_of_interest, establishment"
      }
    },
    {
      "type": "Feature",
      "geometry": {
        "type": "Point",
        "coordinates": [
          10.8058443,
          52.44321559999999
        ]
      },
      "properties": {
        "name": "Katholische Kindertagesstätte St. Bernward",
        "rating": 5,
        "reviewCount": 1,
        "weight": 0.6931471805599453,
        "types": "school, point_of_interest, establishment"
      }
    },
    {
      "type": "Feature",
      "geometry": {
        "type": "Point",
        "coordinates": [
          10.8025034,
          52.4478189
        ]
      },
      "properties": {
        "name": "Aktuell Lohnsteuerhilfeverein e.V. - Wolfsburg Nordstadt",
        "rating": 4.5,
        "reviewCount": 15,
        "weight": 2.772588722239781,
        "types": "finance, point_of_interest, establishment"
      }
    },
    {
      "type": "Feature",
      "geometry": {
        "type": "Point",
        "coordinates": [
          10.77286,
          52.4495
        ]
      },
      "properties": {
        "name": "ammicon GmbH",
        "rating": 5,
        "reviewCount": 2,
        "weight": 1.0986122886681096,
        "types": "point_of_interest, establishment"
      }
    },
    {
      "type": "Feature",
      "geometry": {
        "type": "Point",
        "coordinates": [
          10.800174,
          52.4480902
        ]
      },
      "properties": {
        "name": "Aulich Schubert KG Steuerberatungsgesellschaft",
        "rating": 3.4,
        "reviewCount": 5,
        "weight": 1.791759469228055,
        "types": "finance, point_of_interest, establishment"
      }
    },
    {
      "type": "Feature",
      "geometry": {
        "type": "Point",
        "coordinates": [
          10.781075,
          52.446637
        ]
      },
      "properties": {
        "name": "Bäckerei Leifert Kästorf",
        "rating": 3.8,
        "reviewCount": 58,
        "weight": 4.07753744390572,
        "types": "bakery, food, store, point_of_interest, establishment"
      }
    },
    {
      "type": "Feature",
      "geometry": {
        "type": "Point",
        "coordinates": [
          10.7848142,
          52.45076510000001
        ]
      },
      "properties": {
        "name": "Kosmetikstudio SKIN",
        "rating": 5,
        "reviewCount": 1,
        "weight": 0.6931471805599453,
        "types": "point_of_interest, establishment"
      }
    },
    {
      "type": "Feature",
      "geometry": {
        "type": "Point",
        "coordinates": [
          10.7987555,
          52.44981699999999
        ]
      },
      "properties": {
        "name": "Naturkosmetik",
        "rating": 5,
        "reviewCount": 2,
        "weight": 1.0986122886681096,
        "types": "beauty_salon, point_of_interest, establishment"
      }
    },
    {
      "type": "Feature",
      "geometry": {
        "type": "Point",
        "coordinates": [
          10.7981194,
          52.4430966
        ]
      },
      "properties": {
        "name": "Subud Deutschland e. V.",
        "rating": 5,
        "reviewCount": 2,
        "weight": 1.0986122886681096,
        "types": "point_of_interest, establishment"
      }
    },
    {
      "type": "Feature",
      "geometry": {
        "type": "Point",
        "coordinates": [
          10.8032201,
          52.4507541
        ]
      },
      "properties": {
        "name": "Paritätische Sozialstation",
        "rating": 0,
        "reviewCount": 0,
        "weight": 0,
        "types": "health, point_of_interest, establishment"
      }
    },
    {
      "type": "Feature",
      "geometry": {
        "type": "Point",
        "coordinates": [
          10.7992367,
          52.44691479999999
        ]
      },
      "properties": {
        "name": "Data-Kom-Elektrik GmbH",
        "rating": 0,
        "reviewCount": 0,
        "weight": 0,
        "types": "electrician, point_of_interest, establishment"
      }
    },
    {
      "type": "Feature",
      "geometry": {
        "type": "Point",
        "coordinates": [
          10.7826419,
          52.4449456
        ]
      },
      "properties": {
        "name": "F. Poppe GmbH Meisterbetrieb für Raum- und Fassadengestaltung",
        "rating": 4.1,
        "reviewCount": 7,
        "weight": 2.0794415416798357,
        "types": "painter, point_of_interest, establishment"
      }
    },
    {
      "type": "Feature",
      "geometry": {
        "type": "Point",
        "coordinates": [
          10.8018875,
          52.44816350000001
        ]
      },
      "properties": {
        "name": "Cadera Hansaplatz",
        "rating": 4.1,
        "reviewCount": 138,
        "weight": 4.9344739331306915,
        "types": "bakery, cafe, restaurant, food, store, point_of_interest, establishment"
      }
    },
    {
      "type": "Feature",
      "geometry": {
        "type": "Point",
        "coordinates": [
          10.82036,
          52.45343
        ]
      },
      "properties": {
        "name": "Boxer-Klub e.V., Gruppe Wolfsburg",
        "rating": 4.3,
        "reviewCount": 9,
        "weight": 2.302585092994046,
        "types": "point_of_interest, establishment"
      }
    },
    {
      "type": "Feature",
      "geometry": {
        "type": "Point",
        "coordinates": [
          10.8036664,
          52.45434589999999
        ]
      },
      "properties": {
        "name": "UM Service Garten & Objektpflege",
        "rating": 3.5,
        "reviewCount": 22,
        "weight": 3.1354942159291497,
        "types": "point_of_interest, establishment"
      }
    },
    {
      "type": "Feature",
      "geometry": {
        "type": "Point",
        "coordinates": [
          10.8114589,
          52.43882960000001
        ]
      },
      "properties": {
        "name": "Wolfsburger Schützen- und Volksfestplatz",
        "rating": 4.3,
        "reviewCount": 502,
        "weight": 6.220590170099739,
        "types": "point_of_interest, establishment"
      }
    },
    {
      "type": "Feature",
      "geometry": {
        "type": "Point",
        "coordinates": [
          10.75419,
          52.39383
        ]
      },
      "properties": {
        "name": "Dr. med. Dirk Colla",
        "rating": 3.5,
        "reviewCount": 42,
        "weight": 3.7612001156935624,
        "types": "doctor, health, point_of_interest, establishment"
      }
    },
    {
      "type": "Feature",
      "geometry": {
        "type": "Point",
        "coordinates": [
          10.7707821,
          52.4142549
        ]
      },
      "properties": {
        "name": "HNO im Gesundheitszentrum • Wolfsburg",
        "rating": 4.5,
        "reviewCount": 222,
        "weight": 5.407171771460119,
        "types": "doctor, health, point_of_interest, establishment"
      }
    },
    {
      "type": "Feature",
      "geometry": {
        "type": "Point",
        "coordinates": [
          10.7657295,
          52.4100832
        ]
      },
      "properties": {
        "name": "LUPARTY Luftballons + Partyartikel",
        "rating": 4.6,
        "reviewCount": 17,
        "weight": 2.8903717578961645,
        "types": "home_goods_store, store, point_of_interest, establishment"
      }
    },
    {
      "type": "Feature",
      "geometry": {
        "type": "Point",
        "coordinates": [
          10.7539069,
          52.3932888
        ]
      },
      "properties": {
        "name": "EDEKA Klamka",
        "rating": 3.9,
        "reviewCount": 511,
        "weight": 6.238324625039508,
        "types": "supermarket, grocery_or_supermarket, food, point_of_interest, store, establishment"
      }
    },
    {
      "type": "Feature",
      "geometry": {
        "type": "Point",
        "coordinates": [
          10.7707781,
          52.4207725
        ]
      },
      "properties": {
        "name": "Psychiatrische Institutsambulanz (PIA) Wolfsburg",
        "rating": 3.4,
        "reviewCount": 20,
        "weight": 3.044522437723423,
        "types": "hospital, point_of_interest, health, establishment"
      }
    },
    {
      "type": "Feature",
      "geometry": {
        "type": "Point",
        "coordinates": [
          10.7806752,
          52.42284850000001
        ]
      },
      "properties": {
        "name": "Permanent Make up Alice Jorczyk",
        "rating": 0,
        "reviewCount": 0,
        "weight": 0,
        "types": "beauty_salon, point_of_interest, establishment"
      }
    }
  ]
}